OMM,OACI,SITE,LAT,LONG,ALT
89034,SAYB,BASE BELGRANO II,-77.8666666666667,-34.6333333333333,256
89053,SAYJ,BASE CARLINI (EX JUBANY),-62.2333333333333,-58.6666666666667,11
88963,SAYE,BASE ESPERANZA,-63.4,-57,24
89055,SAWB,BASE MARAMBIO,-64.2333333333333,-56.6333333333333,198
88968,SAYO,BASE ORCADAS,-60.7333333333333,-44.7333333333333,12
89066,SAYS,BASE SAN MARTIN,-68.1333333333333,-67.1,7
87641,SAZA,AZUL AERO,-36.8333333333333,-59.8833333333333,147
87750,SAZB,BAHIA BLANCA AERO,-38.7166666666667,-62.1666666666667,83
87649,SAZJ,BENITO JUAREZ AERO,-37.7,-59.7833333333333,207
87640,SAZI,BOLIVAR AERO,-36.1833333333333,-61.0666666666667,94
87570,SADO,CAMPO DE MAYO AERO,-34.5333333333333,-58.6833333333333,26
87683,SABP,CORONEL PRINGLES AERO,-38,-61.3333333333333,247
87637,SAZC,CORONEL SUAREZ AERO,-37.45,-61.8833333333333,233
87648,SAZD,DOLORES AERO,-36.3166666666667,-57.7166666666667,9
87571,SADP,EL PALOMAR AERO,-34.6,-58.6166666666667,12
87576,SAEZ,EZEIZA AERO,-34.8166666666667,-58.55,20
87548,SAAJ,JUNIN AERO,-34.55,-60.9333333333333,81
87593,SADL,LA PLATA AERO,-34.9666666666667,-57.9,23
87563,SAEL,LAS FLORES,-36.0333333333333,-59.1333333333333,36
87692,SAZM,MAR DEL PLATA AERO,-37.9333333333333,-57.5833333333333,21
87572,SADJ,MARIANO MORENO AERO,-34.55,-58.7833333333333,32
87573,SADR,MERLO AERO,-34.6833333333333,-58.75,36
87574,SADM,MORON AERO,-34.6666666666667,-58.6333333333333,24
87550,SAZX,NUEVE DE JULIO,-35.4333333333333,-60.8833333333333,76
87643,SAZF,OLAVARRIA AERO,-36.8833333333333,-60.2166666666667,166
87544,SAZP,PEHUAJO AERO,-35.8333333333333,-61.8666666666667,87
87679,SAZE,PIGUE AERO,-37.6,-62.3833333333333,304
87596,SAAI,PUNTA INDIO B.A.,-35.35,-57.3,22
87553,SADF,SAN FERNANDO AERO,-34.45,-58.5833333333333,5
87645,SAZT,TANDIL AERO,-37.2333333333333,-59.2333333333333,175
87540,SAET,TRENQUE LAUQUEN,-35.9666666666667,-62.7333333333333,95
87688,SAZH,TRES ARROYOS,-38.3666666666667,-60.2833333333333,115
87663,SAZV,VILLA GESELL AERO,-37.2333333333333,-57.0166666666667,9
87582,SABE,AEROPARQUE AERO,-34.5666666666667,-58.4166666666667,6
87585,SABA,BUENOS AIRES OBSERVATORIO,-34.5833333333333,-58.4833333333333,25
87222,SANC,CATAMARCA AERO,-28.6,-65.75,464
87211,SANI,TINOGASTA,-28.0666666666667,-67.5666666666667,1201
87148,SARS,PRESIDENCIA ROQUE SAENZ PEÃ‘A,-26.75,-60.4833333333333,93
87155,SARE,RESISTENCIA AERO,-27.4333333333333,-59.05,52
87860,SAVC,COMODORO RIVADAVIA AERO,-45.8,-67.4666666666667,46
87803,SAVE,ESQUEL AERO,-42.9,-71.15,797
87814,SAVP,PASO DE INDIOS,-43.7,-69.05,460
87823,SAVY,PUERTO MADRYN AERO,-42.75,-65.1,136
87828,SAVT,TRELEW AERO,-43.2166666666667,-65.2833333333333,43
87344,SACO,CORDOBA AERO,-31.3,-64.2166666666667,495
87345,SACK,CORDOBA OBSERVATORIO,-31.4166666666667,-64.2,425
87347,SACE,ESCUELA DE AVIACION MILITAR,-31.45,-64.2833333333333,502
87534,SAOL,LABOULAYE AERO,-34.1333333333333,-63.3666666666667,137
87467,SAOM,MARCOS JUAREZ AERO,-32.6833333333333,-62.15,114
87349,SACI,PILAR OBSERVATORIO,-31.6666666666667,-63.8833333333333,338
87453,SAOC,RIO CUARTO AERO,-33.1,-64.2833333333333,421
87244,SACV,VILLA DE MARIA DEL RIO SECO,-29.9,-63.7333333333333,341
87328,SAOD,VILLA DOLORES AERO,-31.95,-65.15,566
87166,SARC,CORRIENTES AERO,-27.45,-58.7666666666667,62
87173,SARO,ITUZAINGO,-27.5833333333333,-56.6833333333333,72
87281,SATM,MERCEDES AERO (CTES),-29.2333333333333,-58.0833333333333,107
87393,SARM,MONTE CASEROS AERO,-30.2666666666667,-57.6333333333333,54
87289,SARL,PASO DE LOS LIBRES AERO,-29.6833333333333,-57.15,70
87395,SAAC,CONCORDIA AERO,-31.3,-58,38
87497,SAAG,GUALEGUAYCHU AERO,-33.0166666666667,-58.6166666666667,23
87374,SAAP,PARANA AERO,-31.7833333333333,-60.4833333333333,78
87162,SARF,FORMOSA AERO,-26.2166666666667,-58.2333333333333,60
87078,SATK,LAS LOMITAS,-24.7,-60.6,130
87046,SASJ,JUJUY AERO,-24.3833333333333,-65.1,907
87043,XXJU,JUJUY U N,-24.1833333333333,-65.3333333333333,1302
87007,SASQ,LA QUIACA OBSERVATORIO,-22.1,-65.6,3459
87532,SAZG,GENERAL PICO AERO,-35.6833333333333,-63.7666666666667,145
87623,SAZR,SANTA ROSA AERO,-36.6,-64.2833333333333,191
87616,SAHV,VICTORICA,-36.2166666666667,-65.4333333333333,312
87320,SACT,CHAMICAL AERO,-30.35,-66.3,461
87322,SACP,CHEPES,-31.3333333333333,-66.5833333333333,658
87213,SANO,CHILECITO AERO,-29.2166666666667,-67.45,947
87217,SANL,LA RIOJA AERO,-29.3833333333333,-66.8,429
87506,SAMM,MALARGUE AERO,-35.4833333333333,-69.5833333333333,1425
87418,SAME,MENDOZA AERO,-32.85,-68.8,704
87420,SAMK,MENDOZA OBSERVATORIO,-32.9,-68.8666666666667,827
87412,SAMS,SAN CARLOS (MZA),-33.7666666666667,-69.05,940
87416,SAMI,SAN MARTIN (MZA),-33.0666666666667,-68.4666666666667,653
87509,SAMR,SAN RAFAEL AERO,-34.5833333333333,-68.4,748
87405,SAMU,USPALLATA,-32.6,-69.3333333333333,1891
87163,SATI,BERNARDO DE IRIGOYEN AERO,-26.2833333333333,-53.6666666666667,815
87097,SARI,IGUAZU AERO,-25.7333333333333,-54.4833333333333,270
87187,SATO,OBERA,-27.4833333333333,-55.1333333333333,303
87178,SARP,POSADAS AERO,-27.3833333333333,-55.9666666666667,125
87761,SAZY,CHAPELCO AERO,-40.0833333333333,-71.15,779
87715,SAZN,NEUQUEN AERO,-38.95,-68.1333333333333,271
87765,SAZS,BARILOCHE AERO,-41.15,-71.1666666666667,835
87719,SAHI,CIPOLLETTI,-38.9333333333333,-67.9833333333333,265
87800,SAVB,EL BOLSON AERO,-41.95,-71.5333333333333,337
87774,SAVQ,MAQUINCHAO,-41.25,-68.7,888
87736,SAZQ,RIO COLORADO,-38.9833333333333,-64.0833333333333,79
87784,SAVN,SAN ANTONIO OESTE AERO,-40.75,-65.0333333333333,20
87791,SAVV,VIEDMA AERO,-40.8666666666667,-63,7
87050,SASM,METAN,-25.5166666666667,-64.9666666666667,855
87016,SASO,ORAN AERO,-23.15,-64.3333333333333,357
87065,SASR,RIVADAVIA,-24.1833333333333,-62.8833333333333,205
87047,SASA,SALTA AERO,-24.85,-65.4833333333333,1221
87022,SAST,TARTAGAL AERO,-22.6166666666667,-63.8,450
87305,SAMJ,JACHAL,-30.2333333333333,-68.7333333333333,1175
87311,SANU,SAN JUAN AERO,-31.5666666666667,-68.4166666666667,598
87436,SAOU,SAN LUIS AERO,-33.2666666666667,-66.35,713
87444,SAOS,SANTA ROSA DE CONLARA AERO,-32.3833333333333,-65.1833333333333,620
87448,SAOR,VILLA REYNOLDS AERO,-33.7166666666667,-65.3666666666667,486
87904,SAWC,EL CALAFATE AERO,-50.2833333333333,-72.05,204
87880,SAWR,GOBERNADOR GREGORES AERO,-48.7833333333333,-70.1666666666667,358
87852,SAWP,PERITO MORENO AERO,-46.5333333333333,-70.9833333333333,429
87896,SAWD,PUERTO DESEADO AERO,-47.7333333333333,-65.9,80
87925,SAWG,RIO GALLEGOS AERO,-51.6166666666667,-69.3,19
87909,SAWJ,SAN JULIAN AERO,-49.3,-67.8,62
87912,SAWU,SANTA CRUZ AERO,-50.0166666666667,-68.5833333333333,111
87257,SANW,CERES AERO,-29.8833333333333,-61.9333333333333,88
87470,SAFT,EL TREBOL,-32.2,-61.7166666666667,96
87360,SAFR,RAFAELA AERO,-31.2833333333333,-61.5166666666667,99
87270,SATR,RECONQUISTA AERO,-29.2,-59.7,53
87480,SAAR,ROSARIO AERO,-32.9,-60.7833333333333,25
87371,SAAV,SAUCE VIEJO AERO,-31.7,-60.8,18
87356,SAFS,SUNCHALES AERO,-30.95,-61.5333333333333,92
87468,SAFV,VENADO TUERTO AERO,-33.6833333333333,-61.9666666666667,112
87129,SANE,SANTIAGO DEL ESTERO AERO,-27.75,-64.3,199
87127,SANR,TERMAS DE RIO HONDO AERO,-27.5,-64.9333333333333,280
87934,SAWE,RIO GRANDE B.A.,-53.7833333333333,-67.7666666666667,22
87938,SAWH,USHUAIA AERO,-54.8333333333333,-68.3,57
87121,SANT,TUCUMAN AERO,-26.8333333333333,-65.1166666666667,450
